City_ID,City,Lat,Lng,Max Temp,Humidity,Cloudiness,Wind Speed,Country,Date
0,papatowai,-46.5619,169.4708,279.61,76,100,2.68,NZ,1686848767
1,lagonoy,13.7342,123.5207,299.32,88,100,1.62,PH,1686848767
2,maumere,-8.6199,122.2111,297.06,79,100,1.98,ID,1686848767
3,fort bragg,35.139,-79.006,303.05,48,75,2.06,US,1686848672
4,mankera,31.3866,71.4407,311.49,28,51,5.14,PK,1686848768
5,ust-nera,64.5667,143.2,283.24,80,43,1.3,RU,1686848768
6,blackmans bay,-43.0167,147.3167,279.55,86,97,3.13,AU,1686848768
7,port-aux-francais,-49.35,70.2167,279.27,96,100,12.16,TF,1686848768
8,gadzhiyevo,69.2551,33.3362,279.68,63,40,10.09,RU,1686848769
9,east london,-33.0153,27.9116,287.67,82,0,3.6,ZA,1686848769
10,ancud,-41.8697,-73.8203,281.83,65,94,3.3,CL,1686848769
11,al mahwit,15.4701,43.5448,291.07,65,87,2.54,YE,1686848769
12,novyy turtkul',41.55,61.0167,300.1,14,89,7.91,UZ,1686848770
13,inari,68.906,27.0288,288.26,40,82,5.06,FI,1686848770
14,qarqaraly,49.4058,75.4742,285.37,41,21,1.85,KZ,1686848770
15,wailua homesteads,22.0669,-159.378,296.59,91,100,7.2,US,1686848770
16,port mathurin,-19.6833,63.4167,297.85,74,18,7.78,MU,1686848770
17,adamstown,-25.066,-130.1015,294.46,68,36,4.82,PN,1686848771
18,whitehorse,60.7161,-135.0538,284.83,53,75,6.17,CA,1686848771
19,bethel,41.3712,-73.414,296.98,62,100,3.09,US,1686848771
20,longyearbyen,78.2186,15.6401,277.06,65,75,4.63,SJ,1686848515
21,oranjemund,-28.55,16.4333,288.89,81,48,1.84,NA,1686848772
22,flying fish cove,-10.4217,105.6791,298.97,88,75,5.14,CX,1686848772
23,albany,42.6001,-73.9662,296.84,62,66,1.34,US,1686848242
24,fale old settlement,-9.3852,-171.2468,302.01,70,91,7.99,TK,1686848773
25,lata,40.1629,-8.3327,303.66,48,30,4.53,PT,1686848773
26,grytviken,-54.2811,-36.5092,272.8,82,88,2.33,GS,1686848773
27,stanley,54.868,-1.6985,294.66,55,0,4.12,GB,1686848773
28,labrador city,52.9463,-66.9114,288.1,77,100,2.57,CA,1686848773
29,avarua,-21.2078,-159.775,294.18,100,20,1.03,CK,1686848528
30,iqaluit,63.7506,-68.5145,277.0,64,20,7.2,CA,1686848774
31,hermanus,-34.4187,19.2345,287.48,81,56,4.29,ZA,1686848774
32,edinburgh of the seven seas,-37.0676,-12.3116,285.7,63,41,17.09,SH,1686848775
33,humberto de campos,-2.5983,-43.4611,303.87,57,23,2.03,BR,1686848775
34,fort-shevchenko,44.5086,50.263,298.5,62,37,4.08,KZ,1686848775
35,invercargill,-46.4,168.35,276.94,83,100,1.84,NZ,1686848775
36,haimen,23.1935,116.6142,299.09,91,100,7.73,CN,1686848776
37,natal,-5.795,-35.2094,302.51,79,40,6.17,BR,1686848635
38,isafjordur,66.0755,-23.124,287.17,77,100,2.57,IS,1686848776
39,palmer,42.1584,-72.3287,297.28,58,75,5.66,US,1686848520
40,carauari,-4.8828,-66.8958,299.45,54,29,2.31,BR,1686848567
41,ushuaia,-54.8,-68.3,277.96,56,20,3.09,AR,1686848777
42,praia da vitoria,38.7333,-27.0667,297.29,64,40,5.7,PT,1686848777
43,umm kaddadah,13.6017,26.6876,308.69,30,85,3.72,SD,1686848778
44,qaqortoq,60.7167,-46.0333,277.02,78,99,2.23,GL,1686848778
45,kosh-agach,50.0,88.6667,284.58,51,99,1.31,RU,1686848778
46,hauterive,46.0901,3.4459,297.57,48,26,2.46,FR,1686848779
47,codrington,-38.2667,141.9667,283.78,83,15,7.39,AU,1686848779
48,olonkinbyen,70.9221,-8.7187,276.25,92,85,3.92,SJ,1686848779
49,chyorny yar,48.0624,46.1091,296.05,66,95,2.49,RU,1686848780
50,saipan,15.1355,145.701,301.54,100,20,6.17,MP,1686848780
51,port hueneme,34.1478,-119.1951,293.08,89,100,2.57,US,1686848780
52,igarka,67.4667,86.5833,278.84,79,88,1.46,RU,1686848780
53,saldanha,-33.0117,17.9442,288.18,84,20,2.13,ZA,1686848781
54,puerto natales,-51.7236,-72.4875,279.4,49,20,12.86,CL,1686848781
55,west island,-12.1568,96.8225,299.14,94,75,7.02,CC,1686848781
56,ulsteinvik,62.3432,5.8487,293.65,71,16,3.13,NO,1686848781
57,georgetown,5.4112,100.3354,303.12,80,20,1.03,MY,1686848495
58,nagqu,31.5,92.0,276.88,87,83,0.82,CN,1686848782
59,richards bay,-28.783,32.0377,292.63,78,0,3.25,ZA,1686848782
60,waitangi,-43.9535,-176.5597,283.61,65,77,8.26,NZ,1686848782
61,nizhneangarsk,55.7833,109.55,277.14,89,75,1.15,RU,1686848782
62,miranda,3.2499,-76.2281,299.22,64,100,0.1,CO,1686848783
63,christchurch,-43.5333,172.6333,284.77,82,75,3.13,NZ,1686848676
64,talnakh,69.4865,88.3972,280.49,84,96,0.91,RU,1686848783
65,anadyr,64.75,177.4833,274.43,80,75,3.0,RU,1686848783
66,aitape,-3.1374,142.3475,298.32,88,99,1.19,PG,1686848784
67,kapuskasing,49.4169,-82.4331,282.2,87,100,5.14,CA,1686848702
68,kununurra,-15.7667,128.7333,289.14,94,57,0.0,AU,1686848773
69,tual,-5.6667,132.75,299.93,79,99,8.0,ID,1686848784
70,st. john's,47.5649,-52.7093,288.59,78,75,5.66,CA,1686848661
71,hilo,19.7297,-155.09,298.86,96,100,3.6,US,1686848785
72,nova vicosa,-17.8919,-39.3719,298.93,70,27,3.46,BR,1686848785
73,aasiaat,68.7098,-52.8699,273.84,79,100,3.99,GL,1686848785
74,constantia,44.1833,28.65,298.53,72,65,4.34,RO,1686848786
75,chonchi,-42.6128,-73.8092,283.77,69,65,2.73,CL,1686848786
76,piton saint-leu,-21.2196,55.3151,296.21,73,0,2.57,RE,1686848786
77,margaret river,-33.95,115.0667,288.6,68,97,9.68,AU,1686848788
78,yellowknife,62.456,-114.3525,287.44,54,75,5.66,CA,1686848788
79,pudozh,61.8099,36.5345,292.68,54,10,1.92,RU,1686848788
80,torata,-17.0769,-70.8433,294.5,12,0,3.35,PE,1686848789
81,college,64.8569,-147.8028,286.53,62,40,1.54,US,1686848789
82,hammerfest,70.6634,23.6821,278.4,70,75,3.09,NO,1686848789
83,pacasmayo,-7.4006,-79.5714,297.5,70,94,5.75,PE,1686848789
84,mount gambier,-37.8333,140.7667,283.83,82,31,5.32,AU,1686848790
85,vilela,41.2251,-7.6034,299.99,32,30,1.54,PT,1686848790
86,muli,2.9167,73.5667,301.92,79,100,5.96,MV,1686848790
87,jamestown,42.097,-79.2353,294.0,66,100,1.54,US,1686848790
88,saint-philippe,-21.3585,55.7679,297.92,79,62,4.15,RE,1686848791
89,la sarre,48.8002,-79.1996,291.55,60,90,3.51,CA,1686848692
90,anqiu,36.4342,119.1925,295.71,61,31,4.92,CN,1686848791
91,puerto baquerizo moreno,-0.9,-89.6,300.7,74,75,6.17,EC,1686848792
92,palmares do sul,-30.2578,-50.5097,289.4,92,100,7.81,BR,1686848739
93,klyuchi,52.2667,79.1667,291.24,43,45,3.37,RU,1686848792
94,happy valley-goose bay,53.3168,-60.3315,284.32,66,100,5.14,CA,1686848792
95,greymouth,-42.4667,171.2,278.59,80,76,3.61,NZ,1686848793
96,hamilton,39.1834,-84.5333,301.05,60,0,3.6,US,1686848793
97,polygyros,40.3744,23.4383,295.18,71,73,1.43,GR,1686848793
98,kingston,17.997,-76.7936,307.17,57,20,10.8,JM,1686848665
99,nemuro,43.3236,145.575,286.42,97,100,2.94,JP,1686848794
100,impfondo,1.6381,18.0667,299.4,75,58,0.95,CG,1686848794
101,badger,64.8,-147.5333,286.48,61,40,1.54,US,1686848794
102,yebaishou,41.3975,119.6408,294.32,62,62,3.25,CN,1686848795
103,port alfred,-33.5906,26.891,286.58,92,50,1.34,ZA,1686848795
104,tazovsky,67.4667,78.7,276.15,95,98,4.63,RU,1686848795
105,enewetak,11.3474,162.3373,300.79,79,83,9.35,MH,1686848795
106,utrik,11.2278,169.8474,300.73,80,52,9.13,MH,1686848796
107,tiksi,71.6872,128.8694,277.25,83,53,1.07,RU,1686848796
108,weno,7.4515,151.8468,301.86,76,100,6.31,FM,1686848797
109,labytnangi,66.6572,66.4183,279.77,84,100,7.17,RU,1686848797
110,sao vicente,-23.9631,-46.3919,296.25,94,75,0.53,BR,1686848797
111,palikir - national government center,6.9248,158.1611,300.45,80,100,5.22,FM,1686848797
112,bantogon,6.5333,124.0333,298.49,83,100,1.71,PH,1686848798
113,hithadhoo,-0.6,73.0833,302.1,74,100,5.41,MV,1686848798
114,hailar,49.2,119.7,290.48,66,47,2.49,CN,1686848798
115,colonia,50.9333,6.95,300.28,29,0,2.57,DE,1686848798
116,hawaiian paradise park,19.5933,-154.9731,294.88,97,100,3.6,US,1686848799
117,lashio,22.9333,97.75,293.22,98,91,0.35,MM,1686848799
118,vacaria,-28.5122,-50.9339,284.64,98,100,0.61,BR,1686848587
119,ceres,37.5949,-120.9577,297.71,56,0,3.09,US,1686848799
120,okhotsk,59.3833,143.3,281.54,97,100,1.04,RU,1686848799
121,jamsankoski,61.919,25.1701,299.42,40,10,0.31,FI,1686848800
122,ciudad bolivar,8.1222,-63.5497,305.78,45,72,4.49,VE,1686848771
123,ujae,8.9322,165.7642,301.48,77,99,10.24,MH,1686848800
124,bredasdorp,-34.5322,20.0403,284.71,88,30,3.76,ZA,1686848800
125,thompson,55.7435,-97.8558,289.24,44,20,3.09,CA,1686848800
126,eraan,9.0629,117.7016,298.13,79,100,0.99,PH,1686848801
127,wingham,43.8879,-81.3114,291.15,78,100,3.59,CA,1686848801
128,bilibino,68.0546,166.4372,273.53,70,10,1.87,RU,1686848801
129,concepcion,-36.827,-73.0498,286.04,88,100,2.57,CL,1686848801
130,taoudenni,22.6783,-3.9836,317.68,8,0,3.12,ML,1686848802
131,agua prieta,31.3,-109.5667,302.25,9,0,4.77,MX,1686848802
132,borkum,53.5809,6.6915,290.12,75,29,4.46,DE,1686848802
133,pulawy,51.4166,21.9694,295.23,57,57,1.47,PL,1686848802
134,sisimiut,66.9395,-53.6735,274.1,86,100,4.8,GL,1686848803
135,iskateley,67.6803,53.1512,277.49,71,95,11.31,RU,1686848803
136,port elizabeth,-33.918,25.5701,286.66,93,33,5.81,ZA,1686848803
137,ribeira grande,38.5167,-28.7,294.37,78,20,6.69,PT,1686848803
138,ilulissat,69.2167,-51.1,276.16,81,75,2.57,GL,1686848804
139,uvinza,-5.1036,30.3911,295.46,64,43,1.75,TZ,1686848804
140,yershov,51.3513,48.2766,295.86,57,100,7.93,RU,1686848804
141,alpine,32.835,-116.7664,292.19,74,100,2.68,US,1686848804
142,stephenville,32.2207,-98.2023,304.69,74,0,3.09,US,1686848804
143,wenchang,30.904,118.4887,296.73,57,100,2.23,CN,1686848805
144,geraldton,-28.7667,114.6,285.38,87,40,3.09,AU,1686848805
145,remire-montjoly,4.9167,-52.2667,303.17,66,40,5.14,GF,1686848805
146,puerto deseado,-47.7503,-65.8938,279.71,58,6,5.81,AR,1686848805
147,vorgashor,67.5833,63.95,276.14,93,92,6.74,RU,1686848806
148,sao jose da coroa grande,-8.8978,-35.1478,299.94,81,25,5.91,BR,1686848806
149,kabinda,-6.1333,24.4833,298.91,44,88,1.11,CD,1686848806
150,lihue,21.9789,-159.3672,296.92,89,100,7.2,US,1686848806
151,carloforte,39.145,8.3058,295.75,81,1,8.96,IT,1686848806
152,crane,31.3974,-102.3501,308.77,8,67,7.99,US,1686848807
153,gamba,-2.65,10.0,296.55,82,100,4.07,GA,1686848807
154,ghat,24.9647,10.1728,314.68,7,11,5.08,LY,1686848807
155,andrelandia,-21.7397,-44.3092,297.61,50,98,2.92,BR,1686848807
156,haiku-pauwela,20.9219,-156.3051,297.62,80,0,2.06,US,1686848808
157,siofok,46.9041,18.058,293.18,70,100,1.9,HU,1686848808
158,alofi,-19.0595,-169.9187,297.6,78,96,6.74,NU,1686848808
159,le port,-20.9373,55.2919,298.15,90,17,3.59,RE,1686848808
160,carnarvon,-24.8667,113.6333,290.68,75,0,5.73,AU,1686848809
161,uturoa,-16.7333,-151.4333,300.53,81,96,8.03,PF,1686848809
162,saint-jean-de-maurienne,45.1667,6.5833,283.78,73,75,4.01,FR,1686848810
163,kapa'a,22.0752,-159.319,297.33,91,100,7.2,US,1686848613
164,mahalingpur,16.3833,75.1167,300.07,64,12,7.14,IN,1686848811
165,bor,56.3567,44.0669,296.11,63,98,2.16,RU,1686848811
166,birzebbuga,35.8258,14.5269,297.12,68,20,9.77,MT,1686848812
167,new norfolk,-42.7826,147.0587,280.21,81,97,0.45,AU,1686848812
168,nizhniy kuranakh,58.8353,125.4869,281.96,84,95,4.42,RU,1686848812
169,bhola,22.6833,90.65,302.0,89,95,9.24,BD,1686848812
170,blenheim,-41.516,173.9528,278.81,88,28,2.76,NZ,1686848813
171,ledbury,52.0364,-2.4263,298.83,47,81,1.82,GB,1686848813
172,at taj,24.2049,23.2857,310.27,11,1,3.33,LY,1686848813
173,miyaly,48.8844,53.7836,302.34,20,96,5.64,KZ,1686848813
174,katsuura,35.1333,140.3,293.72,94,100,8.28,JP,1686848814
175,atafu village,-8.5421,-172.5159,302.0,74,27,8.45,TK,1686848814
176,nova sintra,14.8667,-24.7167,294.28,79,33,8.04,CV,1686848814
177,north bend,43.4065,-124.2243,291.06,63,0,5.14,US,1686848814
178,lorengau,-2.0226,147.2712,298.44,86,100,1.77,PG,1686848814
179,santa vitoria do palmar,-33.5189,-53.3681,289.29,60,83,4.57,BR,1686848815
180,alto araguaia,-17.3147,-53.2153,290.07,86,100,2.3,BR,1686848815
181,es castell,39.8795,4.2854,298.53,65,20,3.09,ES,1686848815
182,pandan,14.0453,124.1694,299.93,87,100,2.75,PH,1686848815
183,port hedland,-20.3167,118.5667,292.18,59,78,3.09,AU,1686848815
184,saint croix,17.7397,-64.7388,304.4,62,40,8.75,VI,1686848816
185,bridgewater,44.3835,-64.5155,287.38,94,80,4.12,CA,1686848535
186,tolanaro,-25.0319,46.9987,294.08,67,0,2.88,MG,1686848816
187,puerto ayora,-0.7393,-90.3518,303.13,85,99,2.24,EC,1686848816
188,coquimbo,-29.9533,-71.3436,293.0,34,0,2.57,CL,1686848817
189,olinda,-8.0089,-34.8553,301.0,74,75,6.69,BR,1686848771
190,nar'yan-mar,67.6713,53.087,277.53,71,94,11.35,RU,1686848817
191,valparaiso,-33.0393,-71.6273,297.28,28,0,6.17,CL,1686848802
192,kupang,-10.1667,123.5833,295.64,84,60,3.47,ID,1686848817
193,petropavlovsk-kamchatsky,53.0452,158.6483,283.04,85,21,5.56,RU,1686848818
194,upata,8.0086,-62.3989,302.06,59,50,4.0,VE,1686848689
195,punta arenas,-53.15,-70.9167,278.21,75,20,13.38,CL,1686848774
196,sitka,57.0531,-135.33,282.09,81,100,0.0,US,1686848818
197,crucecita,-28.95,-58.9833,287.65,74,82,3.22,AR,1686848819
198,likiep,9.8251,169.3107,301.18,79,92,9.09,MH,1686848819
199,thal,35.4791,72.2439,288.83,83,25,1.01,PK,1686848819
200,khandyga,62.6667,135.6,282.31,95,8,1.6,RU,1686848819
201,howard springs,-12.497,131.047,293.1,44,69,2.67,AU,1686848820
202,dholka,22.7167,72.4667,301.36,72,84,10.09,IN,1686848820
203,al harithah,30.7186,47.7208,312.37,12,0,6.5,IQ,1686848820
204,uchkeken,43.9378,42.5117,288.03,97,100,1.33,RU,1686848821
205,derzhavinsk,51.1,66.3167,294.48,30,65,3.38,KZ,1686848821
206,holualoa,19.6228,-155.9522,297.06,93,40,3.09,US,1686848821
207,sesheke,-17.4759,24.2968,291.34,11,3,1.13,ZM,1686848822
208,guiratinga,-16.3494,-53.7583,287.35,92,100,1.35,BR,1686848822
209,san ignacio,17.1561,-89.0714,309.23,49,40,6.17,BZ,1686848822
210,qamdo,31.1667,97.2333,278.13,83,99,1.22,CN,1686848823
211,opuwo,-18.0607,13.84,294.23,16,0,3.5,NA,1686848823
212,caernarfon,53.1413,-4.2702,298.04,53,25,2.57,GB,1686848823
213,maiyama,12.0841,4.3677,308.54,35,90,2.16,NG,1686848823
214,alice springs,-23.7,133.8833,275.9,70,4,0.0,AU,1686848553
215,port saint john's,-31.6229,29.5448,289.75,76,95,0.96,ZA,1686848824
216,talara,-4.5772,-81.2719,301.57,61,0,5.66,PE,1686848824
217,forster,-32.1667,152.5167,281.65,68,1,2.84,AU,1686848825
218,bauska,56.4075,24.1906,295.06,62,96,2.47,LV,1686848825
219,road town,18.4167,-64.6167,305.2,66,40,5.14,VG,1686848825
220,lebu,-37.6167,-73.65,285.87,82,52,4.92,CL,1686848825
221,cascais,38.6979,-9.4215,308.05,62,0,5.66,PT,1686848705
222,dauphin,51.1494,-100.0502,293.8,55,46,4.7,CA,1686848826
223,porto novo,6.4965,2.6036,298.06,90,99,3.75,BJ,1686848827
224,cole harbour,44.6724,-63.4751,293.25,82,75,4.12,CA,1686848827
225,margate,51.3813,1.3862,293.64,76,51,0.45,GB,1686848827
226,altai,46.3722,96.2583,287.52,31,100,1.45,MN,1686848827
227,maturin,9.75,-63.1767,301.42,75,76,4.18,VE,1686848828
228,antofagasta,-23.65,-70.4,291.75,52,0,2.77,CL,1686848671
229,arraial do cabo,-22.9661,-42.0278,299.13,69,20,8.75,BR,1686848540
230,feltre,46.0235,11.907,298.07,79,36,0.45,IT,1686848828
231,tabora,-5.0167,32.8,298.2,39,73,1.84,TZ,1686848828
232,pemba,-12.974,40.5178,298.55,66,35,4.55,MZ,1686848829
233,viedma,-40.8135,-62.9967,288.83,34,100,4.56,AR,1686848829
234,muisne,0.6,-80.0333,300.38,78,93,3.77,EC,1686848830
235,conceicao da barra,-18.5933,-39.7322,300.11,60,13,3.27,BR,1686848830
236,fortuna,40.5982,-124.1573,289.22,79,20,5.14,US,1686848830
237,tsiombe,-25.3,45.4833,292.55,76,0,1.72,MG,1686848831
238,karlovo,42.6333,24.8,296.0,81,100,1.12,BG,1686848831
239,kodiak,57.79,-152.4072,279.88,93,100,10.8,US,1686848636
240,sangueya,10.7,-14.3667,301.06,78,100,2.89,GN,1686848832
241,porto velho,-8.7619,-63.9039,294.18,60,100,4.12,BR,1686848686
242,susuman,62.7833,148.1667,286.28,69,100,2.14,RU,1686848833
243,howrah,22.5892,88.3103,305.15,79,40,6.69,IN,1686848834
244,westport,41.1415,-73.3579,297.68,61,100,4.63,US,1686848834
245,walvis bay,-22.9575,14.5053,288.2,66,0,6.93,NA,1686848834
246,seminole,28.7086,-81.2081,307.6,61,0,7.72,US,1686848790
247,mao,39.8885,4.2658,298.46,65,20,3.09,ES,1686848835
248,tura,25.5198,90.2201,295.3,95,100,2.26,IN,1686848835
249,udachny,66.4167,112.4,283.43,63,100,7.65,RU,1686848835
250,la'ie,21.6477,-157.9253,299.13,84,34,5.56,US,1686848835
251,jalai nur,49.45,117.7,291.52,30,93,7.93,CN,1686848836
252,nyurba,63.2842,118.3319,278.84,73,41,3.03,RU,1686848836
253,mitu,1.1983,-70.1733,293.12,98,100,1.96,CO,1686848836
254,kavieng,-2.5744,150.7967,299.59,81,100,2.41,PG,1686848837
255,quellon,-43.1167,-73.6167,282.29,66,20,4.12,CL,1686848837
256,cullowhee,35.3137,-83.1765,301.61,60,0,0.0,US,1686848405
257,saint-louis,16.3333,-15.0,312.86,19,100,2.51,SN,1686848838
258,daru,-9.0763,143.2092,298.53,81,100,6.81,PG,1686848838
259,murzuq,25.9155,13.9184,314.84,8,60,3.97,LY,1686848602
260,umba,66.6871,34.3429,286.89,43,19,5.42,RU,1686848838
261,wad az zaki,14.4619,32.2065,308.71,33,100,2.68,SD,1686848839
262,turan,16.0678,108.2208,302.14,79,20,1.54,VN,1686848839
263,cidreira,-30.1811,-50.2056,290.06,90,100,9.39,BR,1686848839
264,beau vallon,-20.4189,57.6953,297.71,78,28,6.06,MU,1686848840
265,suntar,62.1444,117.6319,280.69,61,34,3.05,RU,1686848840
266,charters towers,-20.1,146.2667,290.01,91,78,2.79,AU,1686848840
267,an nuhud,12.7,28.4333,304.26,44,71,5.74,SD,1686848840
268,kaa-khem,51.6833,94.7333,283.67,38,0,1.43,RU,1686848841
269,doma,8.3833,8.35,300.66,83,93,2.35,NG,1686848841
270,dudinka,69.4058,86.1778,280.52,82,100,3.01,RU,1686848841
271,inhambane,-23.865,35.3833,293.75,68,0,2.21,MZ,1686848842
272,beaufort west,-32.3567,22.583,284.13,59,7,5.9,ZA,1686848842
273,keflavik,64.0049,-22.5624,286.39,82,0,8.23,IS,1686848842
274,dickinson,29.4608,-95.0513,309.83,71,20,7.72,US,1686848842
275,kuanda,56.3161,116.0806,277.67,94,14,1.13,RU,1686848843
276,yuzhno-kurilsk,44.0306,145.8556,285.37,99,98,3.52,RU,1686848843
277,qarauyl,48.9451,79.255,286.54,39,2,3.43,KZ,1686848843
278,minas de marcona,-15.2119,-75.1103,291.8,56,14,5.27,PE,1686848843
279,quezon,7.7303,125.0989,295.58,96,84,0.43,PH,1686848843
280,bamboo flat,11.7,92.7167,300.6,84,99,4.74,IN,1686848844
281,nha trang,12.25,109.1833,302.15,84,100,1.66,VN,1686848844
282,ta`u,-14.2336,-169.5144,299.95,82,100,5.74,AS,1686848844
283,nadym,65.5333,72.5167,279.21,67,75,2.42,RU,1686848845
284,san antonio de pale,-1.4014,5.6325,298.09,82,76,6.53,GQ,1686848845
285,sfax,34.7406,10.7603,301.95,43,57,4.82,TN,1686848845
286,broken hill,-31.95,141.4333,282.23,63,0,4.16,AU,1686848845
287,erdenet,49.0333,104.0833,278.95,86,100,1.7,MN,1686848846
288,shasta lake,40.6804,-122.3708,299.55,27,78,1.79,US,1686848846
289,vila franca do campo,37.7167,-25.4333,294.38,79,66,5.18,PT,1686848846
290,ust'-barguzin,53.45,108.9833,277.14,87,5,1.42,RU,1686848846
291,eynesil,41.0645,39.1438,293.0,84,88,2.41,TR,1686848847
292,lewistown,40.5992,-77.5714,298.08,73,0,4.12,US,1686848847
293,san patricio,28.017,-97.5169,308.75,36,17,6.42,US,1686848847
294,mejit,10.2753,170.8646,300.73,81,79,9.64,MH,1686848848
295,hede,33.7681,120.2517,295.67,62,100,4.34,CN,1686848848
296,rakitnoye,50.8389,35.8515,289.67,91,87,4.23,RU,1686848849
297,byala slatina,43.4667,23.9333,292.7,92,100,2.27,BG,1686848849
298,alaghsas,17.0187,8.0168,312.33,16,27,2.52,NE,1686848849
299,hasaki,35.7333,140.8333,294.38,97,100,10.0,JP,1686848849
300,kerikeri,-35.2268,173.9474,281.99,94,100,0.93,NZ,1686848849
301,kaoma,-14.7833,24.8,292.06,18,12,1.66,ZM,1686848850
302,cadale,2.7603,46.3222,299.09,83,41,6.95,SO,1686848850
303,la ronge,55.1001,-105.2842,290.29,67,75,5.66,CA,1686848560
304,kavaratti,10.5669,72.642,302.65,76,99,6.62,IN,1686848850
305,ninghai,29.2892,121.4247,294.46,89,100,0.65,CN,1686848851
306,saynshand,44.8824,110.1163,300.94,15,12,3.84,MN,1686848851
307,port lincoln,-34.7333,135.8667,286.54,64,0,7.83,AU,1686848851
308,de aar,-30.6497,24.0123,281.88,88,70,8.45,ZA,1686848851
309,kangayam,11.0,77.5667,300.08,73,69,9.42,IN,1686848852
310,buala,-8.145,159.5921,299.53,83,100,0.9,SB,1686848852
311,esquel,-42.9,-71.3167,276.81,94,100,0.58,AR,1686848852
312,vadso,70.0744,29.7487,282.64,49,75,8.75,NO,1686848852
313,caorle,45.5966,12.8758,300.94,64,8,2.54,IT,1686848853
314,zhuanghe,39.7008,122.9911,291.48,80,39,1.57,CN,1686848853
315,shingu,33.7333,135.9833,292.0,91,45,2.89,JP,1686848853
316,ain sefra,32.75,-0.5833,305.51,17,7,4.87,DZ,1686848853
317,selfoss,63.9331,-20.9971,288.17,78,98,2.72,IS,1686848854
318,turpan,42.9333,89.1667,306.55,21,93,2.84,CN,1686848854
319,solnechnyy,50.7214,136.6319,284.87,81,83,0.89,RU,1686848854
320,touros,-5.1989,-35.4608,302.18,65,24,5.45,BR,1686848855
321,bealanana,-14.55,48.7333,287.88,86,17,0.85,MG,1686848855
322,namibe,-15.1961,12.1522,293.11,76,1,3.15,AO,1686848613
323,statesboro,32.4488,-81.7832,293.03,88,75,3.6,US,1686848407
324,cabo san lucas,22.8909,-109.9124,308.76,35,0,2.06,MX,1686848743
325,kabalo,-6.05,26.9167,300.56,32,10,1.8,CD,1686848856
326,toyooka,35.5333,134.8333,290.82,96,100,2.23,JP,1686848856
327,laojunmiao,39.8333,97.7333,294.71,17,97,2.82,CN,1686848856
328,kulhudhuffushi,6.6221,73.07,301.96,75,74,6.27,MV,1686848857
329,mumford,5.2618,-0.759,300.07,74,66,6.22,GH,1686848857
330,malpica,43.3228,-8.8105,299.24,56,9,2.4,ES,1686848857
331,cabrero,-37.0333,-72.4,289.12,62,21,3.0,CL,1686848857
332,whakatane,-37.9585,176.9854,279.69,97,92,1.91,NZ,1686848632
333,kodinsk,58.6881,99.1844,287.23,58,100,5.05,RU,1686848858
334,al bardiyah,31.7561,25.0865,297.98,62,2,7.16,LY,1686848858
335,kayangel,8.0823,134.7173,301.53,71,100,0.82,PW,1686848858
336,kedrovyy,56.1667,91.8167,286.38,71,52,3.14,RU,1686848858
337,pointe-noire,-4.7761,11.8635,296.2,84,90,3.37,CG,1686848859
338,mount isa,-20.7333,139.5,279.02,56,62,0.0,AU,1686848859
339,aripuana,-9.1667,-60.6333,301.58,43,9,1.54,BR,1686848859
340,berezovyy,51.6667,135.7,282.0,95,4,1.35,RU,1686848859
341,tralee,52.2704,-9.7026,293.29,77,20,2.57,IE,1686848860
342,miles city,46.4083,-105.8406,292.69,39,100,5.66,US,1686848699
343,tolna,46.4268,18.7825,292.87,71,100,2.81,HU,1686848860
344,port moresby,-9.4431,147.1797,297.22,89,84,5.97,PG,1686848860
345,freetown,8.484,-13.2299,300.45,78,97,4.23,SL,1686848861
346,leava,-14.3,-178.1667,300.43,81,96,4.33,WF,1686848861
347,vernon,50.2581,-119.2691,292.76,53,39,2.24,CA,1686848861
348,andergrove,-21.0833,149.1833,291.84,77,69,1.5,AU,1686848862
349,deqen,29.9618,90.7188,283.2,82,82,2.08,CN,1686848862
350,zabid,14.1951,43.3152,307.35,46,81,5.84,YE,1686848862
351,sittwe,20.15,92.9,301.26,88,64,5.47,MM,1686848863
352,la passe,45.5549,-0.8967,299.09,71,8,5.32,FR,1686848863
353,peterhead,57.5058,-1.7981,295.37,71,2,4.37,GB,1686848856
354,homer,59.6425,-151.5483,281.09,70,100,7.72,US,1686848818
355,princeville,45.7668,-61.2985,292.42,95,100,4.63,CA,1686848863
356,ketchikan,55.3422,-131.6461,285.14,76,100,5.14,US,1686848864
357,corner brook,48.9667,-57.9484,288.67,75,98,5.88,CA,1686848864
358,broome,42.2506,-75.833,297.38,57,40,5.14,US,1686848864
359,nuuk,64.1835,-51.7216,277.49,60,75,2.06,GL,1686848864
360,huayin,34.5675,110.0921,297.83,58,100,4.52,CN,1686848865
361,horta,38.5333,-28.6333,293.95,81,20,6.69,PT,1686848865
362,bonanza,14.0289,-84.591,300.3,90,99,1.97,NI,1686848865
363,beroroha,-21.6667,45.1667,293.91,31,0,0.59,MG,1686848866
364,antalaha,-14.9003,50.2788,296.03,82,21,3.95,MG,1686848866
365,spittal an der drau,46.8,13.5,295.62,78,68,1.26,AT,1686848866
366,marovoay,-16.1,46.6333,298.0,60,57,2.36,MG,1686848842
367,aykhal,66.0,111.5,280.95,73,100,9.03,RU,1686848867
368,nouadhibou,20.931,-17.0347,299.14,57,6,8.23,MR,1686848867
369,hastings,50.8552,0.5729,298.84,69,74,4.49,GB,1686848867
370,pocito,-31.6833,-68.5833,290.48,16,2,2.62,AR,1686848867
371,saint-leu,-21.15,55.2833,297.63,90,15,1.61,RE,1686848867
372,cowra,-33.8333,148.6833,277.54,88,3,0.67,AU,1686848868
373,dongsheng,39.8161,109.9776,294.71,25,0,3.53,CN,1686848868
374,island harbour,50.724,-1.2758,298.73,61,49,4.66,GB,1686848868
375,qa'en,33.7265,59.1844,300.27,10,0,5.9,IR,1686848868
376,melfort,52.8667,-104.6177,291.23,57,40,7.91,CA,1686848869
377,prince george,53.9166,-122.753,288.85,54,0,2.57,CA,1686848869
378,sandnessjoen,66.0217,12.6316,291.44,76,20,7.72,NO,1686848869
379,marshalltown,42.0494,-92.908,302.78,51,0,2.06,US,1686848869
380,thai binh,20.45,106.3333,302.07,84,98,3.1,VN,1686848870
381,farrukhnagar,17.0778,78.2011,303.99,30,3,2.93,IN,1686848870
382,challapata,-18.9,-66.7667,281.44,11,0,3.0,BO,1686848870
383,dakhla,23.6848,-15.958,295.97,79,0,8.36,EH,1686848870
384,flin flon,54.7682,-101.865,291.06,68,75,5.14,CA,1686848870
385,katsuren-haebaru,26.3369,127.8719,298.16,97,20,3.09,JP,1686848871
386,tabou,4.423,-7.3528,300.72,64,88,3.47,CI,1686848871
387,afaahiti,-17.75,-149.2833,299.08,88,100,9.49,PF,1686848871
388,frontera,26.9333,-101.45,309.44,47,0,1.79,MX,1686848871
389,talbahat,25.05,78.4333,309.68,26,38,4.59,IN,1686848872
390,pangkalanbuun,-2.6833,111.6167,297.03,94,94,1.03,ID,1686848872
391,tabas,33.5959,56.9244,310.64,8,0,8.02,IR,1686848872
392,suez,29.9737,32.5263,301.16,37,0,6.8,EG,1686848872
393,cockburn town,21.4612,-71.1419,301.49,86,81,8.18,TC,1686848872
394,silver city,32.7701,-108.2803,298.52,18,19,4.92,US,1686848873
395,nabire,-3.3667,135.4833,296.79,93,95,1.63,ID,1686848873
396,newman,37.3138,-121.0208,297.72,64,4,1.34,US,1686848873
397,betio village,1.358,172.9211,301.91,76,33,5.99,KI,1686848873
398,naze,28.3667,129.4833,295.47,88,99,1.53,JP,1686848874
399,messaad,34.1543,3.5031,302.0,26,2,5.07,DZ,1686848874
400,salinas,36.6777,-121.6555,289.49,83,100,2.06,US,1686848763
401,choibalsan,48.0667,114.5,288.44,57,98,6.0,MN,1686848874
402,ierapetra,35.01,25.7353,298.23,67,20,0.89,GR,1686848875
403,saudarkrokur,65.7461,-19.6394,288.44,74,99,1.43,IS,1686848875
404,uyuni,-20.4597,-66.825,278.6,13,0,5.13,BO,1686848875
405,bereket,39.2446,55.5154,308.84,8,0,1.22,TM,1686848875
406,encruzilhada do sul,-30.5439,-52.5219,285.14,97,100,5.2,BR,1686848876
407,urangan,-25.3,152.9,287.31,54,26,4.7,AU,1686848876
408,mahina,-17.5065,-149.489,300.02,57,75,3.09,PF,1686848877
409,galveston,29.3669,-94.9669,309.84,75,18,2.24,US,1686848877
410,taitung city,22.7583,121.1444,297.7,95,100,1.43,TW,1686848666
411,guerrero negro,27.9769,-114.0611,292.98,66,39,7.98,MX,1686848728
412,kandyagash,49.4744,57.4233,297.29,30,98,3.63,KZ,1686848878
413,kyzyl-mazhalyk,51.1333,90.6,284.19,43,8,0.89,RU,1686848878
414,wewak,-3.5534,143.6268,298.02,92,99,3.04,PG,1686848878
415,cova figueira,14.8905,-24.2934,295.48,77,21,8.03,CV,1686848879
416,emirdag,39.0197,31.15,294.88,52,57,1.17,TR,1686848879
417,dezhou,37.4486,116.2925,303.63,24,45,4.1,CN,1686848879
418,pont rouge,48.8833,-72.0825,292.31,85,100,1.76,CA,1686848879
419,shahrud,36.4182,54.9763,299.51,36,0,4.65,IR,1686848880
420,barra dos coqueiros,-10.9089,-37.0386,301.16,74,20,6.69,BR,1686848880
421,masterton,-40.9597,175.6575,276.2,93,0,1.6,NZ,1686848880
422,rongelap,11.1635,166.8941,301.02,78,100,9.7,MH,1686848880
423,lai chau,22.3997,103.4517,294.38,98,100,0.69,VN,1686848881
424,grand falls-windsor,48.9332,-55.6649,292.32,58,98,0.45,CA,1686848881
425,bontang,0.1333,117.5,297.77,89,83,2.04,ID,1686848881
426,ola,59.5833,151.2833,280.22,97,100,1.13,RU,1686848882
427,great falls,47.5002,-111.3008,288.81,51,0,1.54,US,1686848645
428,khasab,26.1799,56.2477,306.14,63,3,1.01,OM,1686848882
429,monteros,-27.1674,-65.4983,289.53,35,46,1.4,AR,1686848882
430,calolbon,13.596,124.0991,301.19,82,100,3.05,PH,1686848883
431,waddan,29.1614,16.139,308.14,24,1,9.87,LY,1686848883
432,saint-pierre,-21.3393,55.4781,297.97,73,0,2.57,RE,1686848883
433,polyarnyy,69.1989,33.4478,279.86,63,45,9.99,RU,1686848884
434,prince rupert,54.3161,-130.3201,285.2,72,100,8.23,CA,1686848688
435,pudasjarvi,65.3833,26.9167,295.25,34,1,3.07,FI,1686848884
436,kenai,60.5544,-151.2583,281.56,77,100,5.14,US,1686848779
437,atherton,53.5237,-2.4935,300.18,36,80,0.45,GB,1686848885
438,kirensk,57.7853,108.1119,283.67,57,100,4.07,RU,1686848885
439,belluru,12.9911,76.7444,297.57,74,38,5.49,IN,1686848885
440,kem',64.9555,34.5793,285.99,60,17,4.62,RU,1686848885
441,mozarlandia,-14.7447,-50.5706,303.73,40,100,3.68,BR,1686848886
442,tibanbang,6.6315,126.1055,299.67,83,40,1.5,PH,1686848886
443,mossel bay,-34.1831,22.146,286.65,82,27,5.52,ZA,1686848886
444,west bay,19.3667,-81.4167,305.19,66,20,4.63,KY,1686848886
445,bom jesus,-9.0744,-44.3586,309.34,22,0,3.26,BR,1686848887
446,caleta de carquin,-11.0925,-77.6267,296.14,69,44,5.09,PE,1686848887
447,mandalgovi,45.7625,106.2708,291.11,54,74,10.25,MN,1686848887
448,mansa konko,13.4667,-15.55,309.18,37,100,1.88,GM,1686848887
449,sarmiento,-45.5882,-69.07,280.15,47,65,1.92,AR,1686848888
450,guasdualito,7.2424,-70.7324,301.26,80,99,0.52,VE,1686848888
451,port douglas,-16.4833,145.4667,295.44,82,49,1.62,AU,1686848888
452,rio grande,-32.035,-52.0986,290.21,74,100,7.75,BR,1686848768
453,yinchuan,38.4681,106.2731,299.08,36,15,6.04,CN,1686848889
454,omutinskiy,56.4745,67.6709,286.29,80,61,1.59,RU,1686848889
455,yarmouth,41.7057,-70.2286,296.56,75,100,6.17,US,1686848889
456,al jadid,27.05,14.4,315.73,7,53,6.15,LY,1686848890
457,kingscliff,-28.2667,153.5667,280.04,100,0,2.06,AU,1686848891
458,doka,13.5167,35.7667,302.64,52,100,2.26,SD,1686848891
459,nong kung si,16.65,103.3,301.24,78,100,3.94,TH,1686848892
460,zherdevka,51.8486,41.4606,287.83,90,100,7.17,RU,1686848892
461,lompoc,34.6391,-120.4579,293.16,75,96,2.24,US,1686848849
462,al jawf,29.5,38.75,303.72,17,0,7.21,SA,1686848892
463,kongsvinger,60.1905,11.9977,300.96,10,100,2.26,NO,1686848893
464,pocahontas,36.2615,-90.9712,300.96,71,0,2.06,US,1686848893
465,balatonfured,46.9619,17.8719,292.88,70,100,1.64,HU,1686848893
466,castillos,-34.1667,-53.8333,287.98,62,85,2.88,UY,1686848894
467,ulladulla,-35.35,150.4667,282.54,77,34,2.66,AU,1686848894
468,phan rang-thap cham,11.5667,108.9833,299.64,85,96,1.18,VN,1686848894
469,kol'chugino,56.3,39.3833,292.19,71,28,2.52,RU,1686848894
470,houghton,47.1219,-88.569,283.58,80,75,3.13,US,1686848895
471,leh,34.1667,77.5833,284.92,52,42,3.42,IN,1686848895
472,goulburn,-34.75,149.7167,278.59,95,51,1.34,AU,1686848895
473,pacific grove,36.6177,-121.9166,288.97,90,100,2.24,US,1686848895
474,turtas,58.9417,69.1325,282.7,54,59,1.38,RU,1686848896
475,bereznik,62.8551,42.7072,293.32,40,44,3.14,RU,1686848896
476,agadez,19.75,10.25,313.12,8,1,0.98,NE,1686848896
477,altamira,-3.2033,-52.2064,306.2,62,40,2.06,BR,1686848535
478,lautoka,-17.6167,177.4667,295.07,94,20,1.03,FJ,1686848896
479,nadi,-17.8,177.4167,295.15,94,20,1.03,FJ,1686848897
480,kamikawa,43.84,142.7711,288.55,97,42,1.31,JP,1686848897
481,al miqdadiyah,33.9786,44.9369,308.85,17,0,6.67,IQ,1686848897
482,kaohsiung,22.6163,120.3133,298.12,95,100,6.17,TW,1686848897
483,zykovo,55.9519,93.1461,287.56,69,29,2.79,RU,1686848898
484,tianpeng,30.9866,103.9393,292.41,88,100,0.61,CN,1686848722
485,ad dawadimi,24.5077,44.3924,307.37,11,25,1.99,SA,1686848898
486,kuta,-8.7233,115.1723,299.12,83,20,4.12,ID,1686848888
487,aswan,24.0934,32.907,309.84,13,0,5.16,EG,1686848899
488,koz'modem'yansk,56.3367,46.5711,291.09,69,76,1.57,RU,1686848899
489,destin,30.3935,-86.4958,305.73,80,75,8.75,US,1686848899
490,smithers,54.7804,-127.1743,289.13,42,88,0.75,CA,1686848899
491,aracati,-4.5617,-37.7697,303.0,61,42,4.68,BR,1686848727
492,maamba,-17.3667,27.15,291.43,17,8,1.61,ZM,1686848900
493,mar del plata,-38.0023,-57.5575,287.01,52,0,7.2,AR,1686848676
494,axim,4.8699,-2.2405,300.54,66,85,4.36,GH,1686848900
495,antonio enes,-16.2325,39.9086,296.69,69,18,3.87,MZ,1686848901
496,tshikapa,-6.4167,20.8,301.6,45,36,2.05,CD,1686848901
497,tromso,69.6496,18.957,282.25,76,75,1.54,NO,1686848901
498,gaspe,48.8334,-64.4819,282.27,100,100,1.03,CA,1686848902
499,jardim,-21.4803,-56.1381,290.7,53,0,1.53,BR,1686848902
500,barcelos,41.5388,-8.6151,304.77,53,25,4.22,PT,1686848902
501,mount pearl,47.5166,-52.7813,288.13,87,90,4.51,CA,1686848902
502,mvurwi,-17.0333,30.85,288.92,25,8,0.66,ZW,1686848902
503,mora,11.0461,14.1401,307.47,33,89,3.44,CM,1686848903
504,pereira barreto,-20.6383,-51.1092,286.56,91,100,3.42,BR,1686848903
505,cacu,-18.5567,-51.1308,289.97,88,100,0.8,BR,1686848903
506,st. paul,44.9444,-93.0933,294.07,61,0,5.14,US,1686848883
507,kitee,62.1,30.15,294.93,48,6,1.43,FI,1686848904
508,rumbek,6.802,29.6912,300.92,59,99,1.61,SS,1686848904
509,fort st. john,56.2499,-120.8529,284.09,82,75,2.06,CA,1686848818
510,mana,5.6592,-53.7767,299.03,89,100,3.27,GF,1686848904
511,chimore,-16.9833,-65.1333,294.23,50,35,1.74,BO,1686848905
512,gargalianoi,37.0667,21.6333,299.49,67,46,3.59,GR,1686848905
513,cadillac,44.2519,-85.4012,289.15,94,100,2.57,US,1686848875
514,yukhnov,54.7444,35.2297,291.82,66,5,1.3,RU,1686848905
515,crossett,33.1282,-91.9612,302.43,47,22,2.97,US,1686848906
516,luderitz,-26.6481,15.1594,287.76,84,0,4.11,NA,1686848906
517,dokkum,53.3222,5.997,296.17,46,1,5.66,NL,1686848907
518,muravlenko,63.7898,74.523,279.3,66,58,4.25,RU,1686848907
519,douz,33.4663,9.0203,306.41,23,0,2.36,TN,1686848688
520,robertsport,6.7533,-11.3686,300.93,69,92,5.7,LR,1686848907
521,pyskowice,50.4,18.6333,294.05,59,65,1.34,PL,1686848908
522,arar,30.9753,41.0381,304.58,12,0,4.84,SA,1686848908
523,kone,-21.0595,164.8658,293.44,77,93,1.87,NC,1686848908
524,carora,10.1755,-70.0827,306.8,35,100,8.55,VE,1686848908
525,chadron,42.8294,-102.9999,297.01,54,20,4.12,US,1686848909
526,rajanpur,29.1035,70.325,309.81,34,11,4.84,PK,1686848900
527,kalmunai,7.4167,81.8167,301.97,77,99,2.25,LK,1686848909
528,zahedan,29.4963,60.8629,306.1,8,0,5.14,IR,1686848909
529,dunedin,-45.8742,170.5036,283.6,72,100,2.68,NZ,1686848832
530,sarangani,5.4033,125.4636,300.9,79,47,5.16,PH,1686848910
531,laukaa,58.7372,29.8453,297.16,42,4,0.93,RU,1686848910
532,kidal,18.4411,1.4078,309.78,23,71,8.86,ML,1686848910
533,comodoro rivadavia,-45.8667,-67.5,281.07,46,0,3.6,AR,1686848791
534,boizenburg,53.3833,10.7167,295.26,49,99,4.58,DE,1686848910
535,alo,7.4178,6.7371,299.46,89,81,2.31,NG,1686848911
536,anonang,11.0,124.0333,298.98,81,100,0.9,PH,1686848911
537,ebon,4.582,168.6964,301.79,79,100,6.44,MH,1686848911
538,san luis de la loma,17.2706,-100.8939,305.96,51,80,3.69,MX,1686848911
539,basoko,1.2391,23.616,300.24,71,82,1.61,CD,1686848912
540,vila velha,-20.3297,-40.2925,298.68,80,40,5.66,BR,1686848912
541,sao joao dos patos,-6.495,-43.7022,307.75,30,2,4.18,BR,1686848616
542,banda aceh,5.5577,95.3222,299.97,79,78,5.31,ID,1686848686
543,ust'-kulom,61.6864,53.6902,287.81,55,5,2.45,RU,1686848913
544,mabaruma,8.2,-59.7833,298.83,93,88,2.39,GY,1686848913
545,pisco,-13.7,-76.2167,293.18,73,75,2.57,PE,1686848914
546,jayapura,-2.5333,140.7,297.81,89,100,2.65,ID,1686848915
547,enriquillo,17.9,-71.2333,300.97,68,40,6.31,DO,1686848915
548,porto-vecchio,41.591,9.2795,297.96,73,20,3.09,FR,1686848915
549,malyn,50.7723,29.2383,293.61,79,91,1.88,UA,1686848916
550,little river,33.8732,-78.6142,303.29,69,0,3.6,US,1686848806
551,port-cartier,50.0334,-66.8654,285.23,87,100,6.92,CA,1686848916
552,zuyevka,58.405,51.1335,288.55,71,49,1.17,RU,1686848916
553,sotik post,-0.7813,35.3416,287.87,96,95,1.03,KE,1686848917
554,kedougou,12.5579,-12.1743,308.05,43,97,1.45,SN,1686848917
555,riviere-du-loup,47.8304,-69.5342,283.93,98,100,7.25,CA,1686848868
556,pago pago,-14.2781,-170.7025,299.7,94,75,5.66,AS,1686848917
557,northam,51.0333,-4.2167,293.85,73,37,1.52,GB,1686848917
558,ampanihy,-24.7,44.75,293.24,59,0,3.46,MG,1686848918
559,pariaman,-0.619,100.12,299.18,89,87,2.04,ID,1686848918
560,volcan,8.7667,-82.6333,292.09,83,100,0.45,PA,1686848918
561,mukalla,14.5425,49.1242,307.4,57,79,0.69,YE,1686848918
562,port macquarie,-31.4333,152.9167,277.53,71,0,2.41,AU,1686848919
563,salekhard,66.53,66.6019,280.07,82,100,7.58,RU,1686848919
564,banjarmasin,-3.3244,114.591,297.23,95,96,0.94,ID,1686848919
565,tommot,58.9564,126.2925,283.67,80,100,5.38,RU,1686848919
566,huarmey,-10.0681,-78.1522,296.95,68,47,4.35,PE,1686848919
567,georgiyevka,43.0369,74.7114,297.17,16,0,5.0,KZ,1686848920
568,ugoofaaru,5.6667,73.0,302.01,77,84,5.91,MV,1686848920
569,necochea,-38.5473,-58.7368,286.73,39,38,6.24,AR,1686848815
570,caussade,44.1608,1.5391,298.52,61,23,3.52,FR,1686848920
571,rhar el melah,37.1694,10.1906,299.97,73,25,9.97,TN,1686848921
572,turnu magurele,43.75,24.8667,293.34,85,100,4.07,RO,1686848921
573,paoua,7.2427,16.4406,295.98,90,69,1.95,CF,1686848921
574,dhidhdhoo,6.8833,73.1,302.04,75,84,6.47,MV,1686848921
575,hadibu,12.65,54.0333,301.41,76,100,7.76,YE,1686848921
576,nizhniy odes,63.6445,54.856,289.8,44,94,4.64,RU,1686848922
577,senanga,-16.1167,23.2667,291.33,11,0,1.96,ZM,1686848922
578,sorong,-0.8833,131.25,297.47,91,100,2.9,ID,1686848647
579,lerwick,60.1545,-1.1494,290.15,60,60,1.81,GB,1686848922
580,kudahuvadhoo,2.6708,72.8944,301.92,77,100,6.03,MV,1686848922
581,meadow lake,34.8014,-106.5436,300.6,17,0,6.51,US,1686848923
582,thunder bay,48.4001,-89.3168,286.14,58,100,4.63,CA,1686848718
583,patong,7.8961,98.2966,299.23,77,96,2.55,TH,1686848923
584,bac lieu,9.285,105.7244,301.06,80,99,4.61,VN,1686848923
